$GPGGA,113008.000,3645.423,N,03049.697,E,1,12,1.0,0.0,M,0.0,M,,*62
$GPGSA,A,3,01,02,03,04,05,06,07,08,09,10,11,12,1.0,1.0,1.0*30
$GPRMC,113008.000,A,3645.423,N,03049.697,E,007.8,088.3,080822,000.0,W*7A
$GPGGA,113009.000,3645.423,N,03049.700,E,1,12,1.0,0.0,M,0.0,M,,*6C
$GPGSA,A,3,01,02,03,04,05,06,07,08,09,10,11,12,1.0,1.0,1.0*30
$GPRMC,113009.000,A,3645.423,N,03049.700,E,015.6,088.0,080822,000.0,W*7A
$GPGGA,113010.000,3645.424,N,03049.706,E,1,12,1.0,0.0,M,0.0,M,,*65
$GPGSA,A,3,01,02,03,04,05,06,07,08,09,10,11,12,1.0,1.0,1.0*30
$GPRMC,113010.000,A,3645.424,N,03049.706,E,031.1,084.8,080822,000.0,W*76
$GPGGA,113011.000,3645.425,N,03049.716,E,1,12,1.0,0.0,M,0.0,M,,*64
$GPGSA,A,3,01,02,03,04,05,06,07,08,09,10,11,12,1.0,1.0,1.0*30
$GPRMC,113011.000,A,3645.425,N,03049.716,E,062.2,082.8,080822,000.0,W*74
$GPGGA,113012.000,3645.427,N,03049.738,E,1,12,1.0,0.0,M,0.0,M,,*69
$GPGSA,A,3,01,02,03,04,05,06,07,08,09,10,11,12,1.0,1.0,1.0*30
$GPRMC,113012.000,A,3645.427,N,03049.738,E,062.2,082.8,080822,000.0,W*79
$GPGGA,113013.000,3645.430,N,03049.759,E,1,12,1.0,0.0,M,0.0,M,,*69
$GPGSA,A,3,01,02,03,04,05,06,07,08,09,10,11,12,1.0,1.0,1.0*30
$GPRMC,113013.000,A,3645.430,N,03049.759,E,062.2,082.8,080822,000.0,W*79
$GPGGA,113014.000,3645.433,N,03049.780,E,1,12,1.0,0.0,M,0.0,M,,*69
$GPGSA,A,3,01,02,03,04,05,06,07,08,09,10,11,12,1.0,1.0,1.0*30
$GPRMC,113014.000,A,3645.433,N,03049.780,E,062.2,082.8,080822,000.0,W*79
$GPGGA,113015.000,3645.435,N,03049.801,E,1,12,1.0,0.0,M,0.0,M,,*68
$GPGSA,A,3,01,02,03,04,05,06,07,08,09,10,11,12,1.0,1.0,1.0*30
$GPRMC,113015.000,A,3645.435,N,03049.801,E,062.2,082.8,080822,000.0,W*78
$GPGGA,113016.000,3645.438,N,03049.823,E,1,12,1.0,0.0,M,0.0,M,,*66
$GPGSA,A,3,01,02,03,04,05,06,07,08,09,10,11,12,1.0,1.0,1.0*30
$GPRMC,113016.000,A,3645.438,N,03049.823,E,093.3,087.5,080822,000.0,W*71
$GPGGA,113017.000,3645.439,N,03049.855,E,1,12,1.0,0.0,M,0.0,M,,*67
$GPGSA,A,3,01,02,03,04,05,06,07,08,09,10,11,12,1.0,1.0,1.0*30
$GPRMC,113017.000,A,3645.439,N,03049.855,E,093.3,091.5,080822,000.0,W*77
$GPGGA,113018.000,3645.439,N,03049.887,E,1,12,1.0,0.0,M,0.0,M,,*67
$GPGSA,A,3,01,02,03,04,05,06,07,08,09,10,11,12,1.0,1.0,1.0*30
$GPRMC,113018.000,A,3645.439,N,03049.887,E,093.3,091.5,080822,000.0,W*77
$GPGGA,113019.000,3645.438,N,03049.920,E,1,12,1.0,0.0,M,0.0,M,,*6B
$GPGSA,A,3,01,02,03,04,05,06,07,08,09,10,11,12,1.0,1.0,1.0*30
$GPRMC,113019.000,A,3645.438,N,03049.920,E,093.3,090.9,080822,000.0,W*76
$GPGGA,113020.000,3645.437,N,03049.952,E,1,12,1.0,0.0,M,0.0,M,,*6B
$GPGSA,A,3,01,02,03,04,05,06,07,08,09,10,11,12,1.0,1.0,1.0*30
$GPRMC,113020.000,A,3645.437,N,03049.952,E,093.3,090.9,080822,000.0,W*76
$GPGGA,113021.000,3645.437,N,03049.984,E,1,12,1.0,0.0,M,0.0,M,,*61
$GPGSA,A,3,01,02,03,04,05,06,07,08,09,10,11,12,1.0,1.0,1.0*30
$GPRMC,113021.000,A,3645.437,N,03049.984,E,124.4,082.9,080822,000.0,W*75
$GPGGA,113022.000,3645.442,N,03050.027,E,1,12,1.0,0.0,M,0.0,M,,*68
$GPGSA,A,3,01,02,03,04,05,06,07,08,09,10,11,12,1.0,1.0,1.0*30
$GPRMC,113022.000,A,3645.442,N,03050.027,E,124.4,082.9,080822,000.0,W*7C
$GPGGA,113023.000,3645.447,N,03050.069,E,1,12,1.0,0.0,M,0.0,M,,*66
$GPGSA,A,3,01,02,03,04,05,06,07,08,09,10,11,12,1.0,1.0,1.0*30
$GPRMC,113023.000,A,3645.447,N,03050.069,E,124.4,082.9,080822,000.0,W*72
$GPGGA,113024.000,3645.453,N,03050.112,E,1,12,1.0,0.0,M,0.0,M,,*69
$GPGSA,A,3,01,02,03,04,05,06,07,08,09,10,11,12,1.0,1.0,1.0*30
$GPRMC,113024.000,A,3645.453,N,03050.112,E,124.4,094.5,080822,000.0,W*76
$GPGGA,113025.000,3645.449,N,03050.155,E,1,12,1.0,0.0,M,0.0,M,,*60
$GPGSA,A,3,01,02,03,04,05,06,07,08,09,10,11,12,1.0,1.0,1.0*30
$GPRMC,113025.000,A,3645.449,N,03050.155,E,124.4,094.5,080822,000.0,W*7F
$GPGGA,113026.000,3645.446,N,03050.198,E,1,12,1.0,0.0,M,0.0,M,,*6D
$GPGSA,A,3,01,02,03,04,05,06,07,08,09,10,11,12,1.0,1.0,1.0*30
$GPRMC,113026.000,A,3645.446,N,03050.198,E,124.4,094.5,080822,000.0,W*72
$GPGGA,113027.000,3645.442,N,03050.241,E,1,12,1.0,0.0,M,0.0,M,,*6F
$GPGSA,A,3,01,02,03,04,05,06,07,08,09,10,11,12,1.0,1.0,1.0*30
$GPRMC,113027.000,A,3645.442,N,03050.241,E,124.4,094.5,080822,000.0,W*70
$GPGGA,113028.000,3645.439,N,03050.284,E,1,12,1.0,0.0,M,0.0,M,,*65
$GPGSA,A,3,01,02,03,04,05,06,07,08,09,10,11,12,1.0,1.0,1.0*30
$GPRMC,113028.000,A,3645.439,N,03050.284,E,186.6,085.4,080822,000.0,W*71
$GPGGA,113029.000,3645.444,N,03050.348,E,1,12,1.0,0.0,M,0.0,M,,*6F
$GPGSA,A,3,01,02,03,04,05,06,07,08,09,10,11,12,1.0,1.0,1.0*30
$GPRMC,113029.000,A,3645.444,N,03050.348,E,186.6,085.4,080822,000.0,W*7B
$GPGGA,113030.000,3645.449,N,03050.412,E,1,12,1.0,0.0,M,0.0,M,,*62
$GPGSA,A,3,01,02,03,04,05,06,07,08,09,10,11,12,1.0,1.0,1.0*30
$GPRMC,113030.000,A,3645.449,N,03050.412,E,186.6,085.4,080822,000.0,W*76
$GPGGA,113031.000,3645.455,N,03050.477,E,1,12,1.0,0.0,M,0.0,M,,*6D
$GPGSA,A,3,01,02,03,04,05,06,07,08,09,10,11,12,1.0,1.0,1.0*30
$GPRMC,113031.000,A,3645.455,N,03050.477,E,186.6,085.4,080822,000.0,W*79
$GPGGA,113032.000,3645.460,N,03050.541,E,1,12,1.0,0.0,M,0.0,M,,*6C
$GPGSA,A,3,01,02,03,04,05,06,07,08,09,10,11,12,1.0,1.0,1.0*30
$GPRMC,113032.000,A,3645.460,N,03050.541,E,186.6,085.4,080822,000.0,W*78
$GPGGA,113033.000,3645.465,N,03050.605,E,1,12,1.0,0.0,M,0.0,M,,*6B
$GPGSA,A,3,01,02,03,04,05,06,07,08,09,10,11,12,1.0,1.0,1.0*30
$GPRMC,113033.000,A,3645.465,N,03050.605,E,186.6,066.7,080822,000.0,W*71
$GPGGA,113034.000,3645.489,N,03050.662,E,1,12,1.0,0.0,M,0.0,M,,*6F
$GPGSA,A,3,01,02,03,04,05,06,07,08,09,10,11,12,1.0,1.0,1.0*30
$GPRMC,113034.000,A,3645.489,N,03050.662,E,186.6,066.7,080822,000.0,W*75
$GPGGA,113035.000,3645.514,N,03050.719,E,1,12,1.0,0.0,M,0.0,M,,*66
$GPGSA,A,3,01,02,03,04,05,06,07,08,09,10,11,12,1.0,1.0,1.0*30
$GPRMC,113035.000,A,3645.514,N,03050.719,E,186.6,066.7,080822,000.0,W*7C
$GPGGA,113036.000,3645.538,N,03050.776,E,1,12,1.0,0.0,M,0.0,M,,*62
$GPGSA,A,3,01,02,03,04,05,06,07,08,09,10,11,12,1.0,1.0,1.0*30
$GPRMC,113036.000,A,3645.538,N,03050.776,E,186.6,066.7,080822,000.0,W*78
$GPGGA,113037.000,3645.563,N,03050.833,E,1,12,1.0,0.0,M,0.0,M,,*63
$GPGSA,A,3,01,02,03,04,05,06,07,08,09,10,11,12,1.0,1.0,1.0*30
$GPRMC,113037.000,A,3645.563,N,03050.833,E,186.6,077.1,080822,000.0,W*7F
$GPGGA,113038.000,3645.577,N,03050.895,E,1,12,1.0,0.0,M,0.0,M,,*65
$GPGSA,A,3,01,02,03,04,05,06,07,08,09,10,11,12,1.0,1.0,1.0*30
$GPRMC,113038.000,A,3645.577,N,03050.895,E,186.6,114.0,080822,000.0,W*7C
$GPGGA,113039.000,3645.552,N,03050.952,E,1,12,1.0,0.0,M,0.0,M,,*69
$GPGSA,A,3,01,02,03,04,05,06,07,08,09,10,11,12,1.0,1.0,1.0*30
$GPRMC,113039.000,A,3645.552,N,03050.952,E,186.6,145.7,080822,000.0,W*73
$GPGGA,113040.000,3645.506,N,03050.983,E,1,12,1.0,0.0,M,0.0,M,,*6A
$GPGSA,A,3,01,02,03,04,05,06,07,08,09,10,11,12,1.0,1.0,1.0*30
$GPRMC,113040.000,A,3645.506,N,03050.983,E,186.6,175.6,080822,000.0,W*72
$GPGGA,113041.000,3645.455,N,03050.987,E,1,12,1.0,0.0,M,0.0,M,,*68
$GPGSA,A,3,01,02,03,04,05,06,07,08,09,10,11,12,1.0,1.0,1.0*30
$GPRMC,113041.000,A,3645.455,N,03050.987,E,186.6,128.7,080822,000.0,W*79
$GPGGA,113042.000,3645.418,N,03051.033,E,1,12,1.0,0.0,M,0.0,M,,*65
$GPGSA,A,3,01,02,03,04,05,06,07,08,09,10,11,12,1.0,1.0,1.0*30
$GPRMC,113042.000,A,3645.418,N,03051.033,E,186.6,096.2,080822,000.0,W*75
$GPGGA,113043.000,3645.411,N,03051.097,E,1,12,1.0,0.0,M,0.0,M,,*63
$GPGSA,A,3,01,02,03,04,05,06,07,08,09,10,11,12,1.0,1.0,1.0*30
$GPRMC,113043.000,A,3645.411,N,03051.097,E,186.6,076.2,080822,000.0,W*7D
$GPGGA,113044.000,3645.426,N,03051.159,E,1,12,1.0,0.0,M,0.0,M,,*63
$GPGSA,A,3,01,02,03,04,05,06,07,08,09,10,11,12,1.0,1.0,1.0*30
$GPRMC,113044.000,A,3645.426,N,03051.159,E,186.6,057.1,080822,000.0,W*7D
$GPGGA,113045.000,3645.459,N,03051.209,E,1,12,1.0,0.0,M,0.0,M,,*6C
$GPGSA,A,3,01,02,03,04,05,06,07,08,09,10,11,12,1.0,1.0,1.0*30
$GPRMC,113045.000,A,3645.459,N,03051.209,E,186.6,038.4,080822,000.0,W*7E
$GPGGA,113046.000,3645.502,N,03051.244,E,1,12,1.0,0.0,M,0.0,M,,*69
$GPGSA,A,3,01,02,03,04,05,06,07,08,09,10,11,12,1.0,1.0,1.0*30
$GPRMC,113046.000,A,3645.502,N,03051.244,E,186.6,019.9,080822,000.0,W*75
$GPGGA,113047.000,3645.552,N,03051.262,E,1,12,1.0,0.0,M,0.0,M,,*69
$GPGSA,A,3,01,02,03,04,05,06,07,08,09,10,11,12,1.0,1.0,1.0*30
$GPRMC,113047.000,A,3645.552,N,03051.262,E,186.6,025.5,080822,000.0,W*76
$GPGGA,113048.000,3645.601,N,03051.285,E,1,12,1.0,0.0,M,0.0,M,,*6A
$GPGSA,A,3,01,02,03,04,05,06,07,08,09,10,11,12,1.0,1.0,1.0*30
$GPRMC,113048.000,A,3645.601,N,03051.285,E,186.6,048.1,080822,000.0,W*7A
$GPGGA,113049.000,3645.639,N,03051.328,E,1,12,1.0,0.0,M,0.0,M,,*66
$GPGSA,A,3,01,02,03,04,05,06,07,08,09,10,11,12,1.0,1.0,1.0*30
$GPRMC,113049.000,A,3645.639,N,03051.328,E,202.2,055.9,080822,000.0,W*79
$GPGGA,113050.000,3645.675,N,03051.381,E,1,12,1.0,0.0,M,0.0,M,,*65
$GPGSA,A,3,01,02,03,04,05,06,07,08,09,10,11,12,1.0,1.0,1.0*30
$GPRMC,113050.000,A,3645.675,N,03051.381,E,202.2,071.9,080822,000.0,W*7C
$GPGGA,113051.000,3645.697,N,03051.446,E,1,12,1.0,0.0,M,0.0,M,,*64
$GPGSA,A,3,01,02,03,04,05,06,07,08,09,10,11,12,1.0,1.0,1.0*30
$GPRMC,113051.000,A,3645.697,N,03051.446,E,221.6,085.8,080822,000.0,W*72
$GPGGA,113052.000,3645.702,N,03051.523,E,1,12,1.0,0.0,M,0.0,M,,*68
$GPGSA,A,3,01,02,03,04,05,06,07,08,09,10,11,12,1.0,1.0,1.0*30
$GPRMC,113052.000,A,3645.702,N,03051.523,E,221.6,090.3,080822,000.0,W*71
$GPGGA,113053.000,3645.702,N,03051.600,E,1,12,1.0,0.0,M,0.0,M,,*6B
$GPGSA,A,3,01,02,03,04,05,06,07,08,09,10,11,12,1.0,1.0,1.0*30
$GPRMC,113053.000,A,3645.702,N,03051.600,E,221.6,093.1,080822,000.0,W*73
$GPGGA,113054.000,3645.698,N,03051.676,E,1,12,1.0,0.0,M,0.0,M,,*6F
$GPGSA,A,3,01,02,03,04,05,06,07,08,09,10,11,12,1.0,1.0,1.0*30
$GPRMC,113054.000,A,3645.698,N,03051.676,E,221.6,093.1,080822,000.0,W*77
$GPGGA,113055.000,3645.694,N,03051.753,E,1,12,1.0,0.0,M,0.0,M,,*64
$GPGSA,A,3,01,02,03,04,05,06,07,08,09,10,11,12,1.0,1.0,1.0*30
$GPRMC,113055.000,A,3645.694,N,03051.753,E,221.6,096.2,080822,000.0,W*7A
$GPGGA,113056.000,3645.685,N,03051.829,E,1,12,1.0,0.0,M,0.0,M,,*65
$GPGSA,A,3,01,02,03,04,05,06,07,08,09,10,11,12,1.0,1.0,1.0*30
$GPRMC,113056.000,A,3645.685,N,03051.829,E,221.6,096.2,080822,000.0,W*7B
$GPGGA,113057.000,3645.677,N,03051.905,E,1,12,1.0,0.0,M,0.0,M,,*66
$GPGSA,A,3,01,02,03,04,05,06,07,08,09,10,11,12,1.0,1.0,1.0*30
$GPRMC,113057.000,A,3645.677,N,03051.905,E,248.8,100.6,080822,000.0,W*73
$GPGGA,113058.000,3645.661,N,03051.989,E,1,12,1.0,0.0,M,0.0,M,,*6A
$GPGSA,A,3,01,02,03,04,05,06,07,08,09,10,11,12,1.0,1.0,1.0*30
$GPRMC,113058.000,A,3645.661,N,03051.989,E,248.8,100.6,080822,000.0,W*7F
$GPGGA,113059.000,3645.646,N,03052.073,E,1,12,1.0,0.0,M,0.0,M,,*61
$GPGSA,A,3,01,02,03,04,05,06,07,08,09,10,11,12,1.0,1.0,1.0*30
$GPRMC,113059.000,A,3645.646,N,03052.073,E,248.8,100.6,080822,000.0,W*74
$GPGGA,113100.000,3645.630,N,03052.157,E,1,12,1.0,0.0,M,0.0,M,,*6A
$GPGSA,A,3,01,02,03,04,05,06,07,08,09,10,11,12,1.0,1.0,1.0*30
$GPRMC,113100.000,A,3645.630,N,03052.157,E,248.8,103.2,080822,000.0,W*78
$GPGGA,113101.000,3645.610,N,03052.240,E,1,12,1.0,0.0,M,0.0,M,,*6C
$GPGSA,A,3,01,02,03,04,05,06,07,08,09,10,11,12,1.0,1.0,1.0*30
$GPRMC,113101.000,A,3645.610,N,03052.240,E,248.8,103.2,080822,000.0,W*7E
$GPGGA,113102.000,3645.591,N,03052.322,E,1,12,1.0,0.0,M,0.0,M,,*60
$GPGSA,A,3,01,02,03,04,05,06,07,08,09,10,11,12,1.0,1.0,1.0*30
$GPRMC,113102.000,A,3645.591,N,03052.322,E,248.8,096.6,080822,000.0,W*7B
$GPGGA,113103.000,3645.581,N,03052.408,E,1,12,1.0,0.0,M,0.0,M,,*6F
$GPGSA,A,3,01,02,03,04,05,06,07,08,09,10,11,12,1.0,1.0,1.0*30
$GPRMC,113103.000,A,3645.581,N,03052.408,E,248.8,083.8,080822,000.0,W*7E
$GPGGA,113104.000,3645.590,N,03052.493,E,1,12,1.0,0.0,M,0.0,M,,*6A
$GPGSA,A,3,01,02,03,04,05,06,07,08,09,10,11,12,1.0,1.0,1.0*30
$GPRMC,113104.000,A,3645.590,N,03052.493,E,248.8,065.2,080822,000.0,W*79
$GPGGA,113105.000,3645.625,N,03052.568,E,1,12,1.0,0.0,M,0.0,M,,*63
$GPGSA,A,3,01,02,03,04,05,06,07,08,09,10,11,12,1.0,1.0,1.0*30
$GPRMC,113105.000,A,3645.625,N,03052.568,E,248.8,054.7,080822,000.0,W*77
$GPGGA,113106.000,3645.671,N,03052.632,E,1,12,1.0,0.0,M,0.0,M,,*6D
$GPGSA,A,3,01,02,03,04,05,06,07,08,09,10,11,12,1.0,1.0,1.0*30
$GPRMC,113106.000,A,3645.671,N,03052.632,E,248.8,040.4,080822,000.0,W*7F
$GPGGA,113107.000,3645.728,N,03052.681,E,1,12,1.0,0.0,M,0.0,M,,*69
$GPGSA,A,3,01,02,03,04,05,06,07,08,09,10,11,12,1.0,1.0,1.0*30
$GPRMC,113107.000,A,3645.728,N,03052.681,E,248.8,039.9,080822,000.0,W*78
$GPGGA,113108.000,3645.785,N,03052.729,E,1,12,1.0,0.0,M,0.0,M,,*62
$GPGSA,A,3,01,02,03,04,05,06,07,08,09,10,11,12,1.0,1.0,1.0*30
$GPRMC,113108.000,A,3645.785,N,03052.729,E,256.6,041.8,080822,000.0,W*7C
$GPGGA,113109.000,3645.843,N,03052.781,E,1,12,1.0,0.0,M,0.0,M,,*64
$GPGSA,A,3,01,02,03,04,05,06,07,08,09,10,11,12,1.0,1.0,1.0*30
$GPRMC,113109.000,A,3645.843,N,03052.781,E,256.6,036.1,080822,000.0,W*73
$GPGGA,113110.000,3645.904,N,03052.826,E,1,12,1.0,0.0,M,0.0,M,,*6C
$GPGSA,A,3,01,02,03,04,05,06,07,08,09,10,11,12,1.0,1.0,1.0*30
$GPRMC,113110.000,A,3645.904,N,03052.826,E,256.6,050.7,080822,000.0,W*7D
$GPGGA,113111.000,3645.955,N,03052.888,E,1,12,1.0,0.0,M,0.0,M,,*6D
$GPGSA,A,3,01,02,03,04,05,06,07,08,09,10,11,12,1.0,1.0,1.0*30
$GPRMC,113111.000,A,3645.955,N,03052.888,E,256.6,067.3,080822,000.0,W*7C
$GPGGA,113112.000,3645.988,N,03052.967,E,1,12,1.0,0.0,M,0.0,M,,*6E
$GPGSA,A,3,01,02,03,04,05,06,07,08,09,10,11,12,1.0,1.0,1.0*30
$GPRMC,113112.000,A,3645.988,N,03052.967,E,256.6,077.3,080822,000.0,W*7E
$GPGGA,113113.000,3646.007,N,03053.053,E,1,12,1.0,0.0,M,0.0,M,,*6D
$GPGSA,A,3,01,02,03,04,05,06,07,08,09,10,11,12,1.0,1.0,1.0*30
$GPRMC,113113.000,A,3646.007,N,03053.053,E,256.6,089.5,080822,000.0,W*7A
$GPGGA,113114.000,3646.008,N,03053.142,E,1,12,1.0,0.0,M,0.0,M,,*64
$GPGSA,A,3,01,02,03,04,05,06,07,08,09,10,11,12,1.0,1.0,1.0*30
$GPRMC,113114.000,A,3646.008,N,03053.142,E,256.6,095.2,080822,000.0,W*79
$GPGGA,113115.000,3646.000,N,03053.230,E,1,12,1.0,0.0,M,0.0,M,,*6B
$GPGSA,A,3,01,02,03,04,05,06,07,08,09,10,11,12,1.0,1.0,1.0*30
$GPRMC,113115.000,A,3646.000,N,03053.230,E,256.6,097.9,080822,000.0,W*7F
$GPGGA,113116.000,3645.988,N,03053.318,E,1,12,1.0,0.0,M,0.0,M,,*69
$GPGSA,A,3,01,02,03,04,05,06,07,08,09,10,11,12,1.0,1.0,1.0*30
$GPRMC,113116.000,A,3645.988,N,03053.318,E,274.1,091.5,080822,000.0,W*70
$GPGGA,113117.000,3645.986,N,03053.412,E,1,12,1.0,0.0,M,0.0,M,,*6B
$GPGSA,A,3,01,02,03,04,05,06,07,08,09,10,11,12,1.0,1.0,1.0*30
$GPRMC,113117.000,A,3645.986,N,03053.412,E,274.1,066.5,080822,000.0,W*7A
$GPGGA,113118.000,3646.022,N,03053.496,E,1,12,1.0,0.0,M,0.0,M,,*6C
$GPGSA,A,3,01,02,03,04,05,06,07,08,09,10,11,12,1.0,1.0,1.0*30
$GPRMC,113118.000,A,3646.022,N,03053.496,E,274.1,048.7,080822,000.0,W*73
$GPGGA,113119.000,3646.078,N,03053.560,E,1,12,1.0,0.0,M,0.0,M,,*6A
$GPGSA,A,3,01,02,03,04,05,06,07,08,09,10,11,12,1.0,1.0,1.0*30
$GPRMC,113119.000,A,3646.078,N,03053.560,E,274.1,041.5,080822,000.0,W*7E
$GPGGA,113120.000,3646.140,N,03053.615,E,1,12,1.0,0.0,M,0.0,M,,*6B
$GPGSA,A,3,01,02,03,04,05,06,07,08,09,10,11,12,1.0,1.0,1.0*30
$GPRMC,113120.000,A,3646.140,N,03053.615,E,274.1,044.1,080822,000.0,W*7E
$GPGGA,113121.000,3646.200,N,03053.673,E,1,12,1.0,0.0,M,0.0,M,,*6D
$GPGSA,A,3,01,02,03,04,05,06,07,08,09,10,11,12,1.0,1.0,1.0*30
$GPRMC,113121.000,A,3646.200,N,03053.673,E,278.0,043.2,080822,000.0,W*71
$GPGGA,113122.000,3646.262,N,03053.731,E,1,12,1.0,0.0,M,0.0,M,,*6D
$GPGSA,A,3,01,02,03,04,05,06,07,08,09,10,11,12,1.0,1.0,1.0*30
$GPRMC,113122.000,A,3646.262,N,03053.731,E,278.0,069.1,080822,000.0,W*7A
$GPGGA,113123.000,3646.295,N,03053.818,E,1,12,1.0,0.0,M,0.0,M,,*60
$GPGSA,A,3,01,02,03,04,05,06,07,08,09,10,11,12,1.0,1.0,1.0*30
$GPRMC,113123.000,A,3646.295,N,03053.818,E,256.6,079.5,080822,000.0,W*78
$GPGGA,113124.000,3646.311,N,03053.905,E,1,12,1.0,0.0,M,0.0,M,,*67
$GPGSA,A,3,01,02,03,04,05,06,07,08,09,10,11,12,1.0,1.0,1.0*30
$GPRMC,113124.000,A,3646.311,N,03053.905,E,256.6,086.9,080822,000.0,W*73
$GPGGA,113125.000,3646.316,N,03053.994,E,1,12,1.0,0.0,M,0.0,M,,*69
$GPGSA,A,3,01,02,03,04,05,06,07,08,09,10,11,12,1.0,1.0,1.0*30
$GPRMC,113125.000,A,3646.316,N,03053.994,E,243.0,097.7,080822,000.0,W*71
$GPGGA,113126.000,3646.304,N,03054.077,E,1,12,1.0,0.0,M,0.0,M,,*6A
$GPGSA,A,3,01,02,03,04,05,06,07,08,09,10,11,12,1.0,1.0,1.0*30
$GPRMC,113126.000,A,3646.304,N,03054.077,E,243.0,097.7,080822,000.0,W*72
$GPGGA,113127.000,3646.293,N,03054.160,E,1,12,1.0,0.0,M,0.0,M,,*63
$GPGSA,A,3,01,02,03,04,05,06,07,08,09,10,11,12,1.0,1.0,1.0*30
$GPRMC,113127.000,A,3646.293,N,03054.160,E,243.0,102.8,080822,000.0,W*79
$GPGGA,113128.000,3646.275,N,03054.241,E,1,12,1.0,0.0,M,0.0,M,,*64
$GPGSA,A,3,01,02,03,04,05,06,07,08,09,10,11,12,1.0,1.0,1.0*30
$GPRMC,113128.000,A,3646.275,N,03054.241,E,243.0,095.3,080822,000.0,W*7A
$GPGGA,113129.000,3646.267,N,03054.324,E,1,12,1.0,0.0,M,0.0,M,,*64
$GPGSA,A,3,01,02,03,04,05,06,07,08,09,10,11,12,1.0,1.0,1.0*30
$GPRMC,113129.000,A,3646.267,N,03054.324,E,243.0,095.3,080822,000.0,W*7A
$GPGGA,113130.000,3646.259,N,03054.408,E,1,12,1.0,0.0,M,0.0,M,,*68
$GPGSA,A,3,01,02,03,04,05,06,07,08,09,10,11,12,1.0,1.0,1.0*30
$GPRMC,113130.000,A,3646.259,N,03054.408,E,243.0,078.5,080822,000.0,W*73
$GPGGA,113131.000,3646.276,N,03054.490,E,1,12,1.0,0.0,M,0.0,M,,*65
$GPGSA,A,3,01,02,03,04,05,06,07,08,09,10,11,12,1.0,1.0,1.0*30
$GPRMC,113131.000,A,3646.276,N,03054.490,E,243.0,077.2,080822,000.0,W*76
$GPGGA,113132.000,3646.294,N,03054.571,E,1,12,1.0,0.0,M,0.0,M,,*64
$GPGSA,A,3,01,02,03,04,05,06,07,08,09,10,11,12,1.0,1.0,1.0*30
$GPRMC,113132.000,A,3646.294,N,03054.571,E,243.0,033.2,080822,000.0,W*77
$GPGGA,113133.000,3646.354,N,03054.610,E,1,12,1.0,0.0,M,0.0,M,,*6C
$GPGSA,A,3,01,02,03,04,05,06,07,08,09,10,11,12,1.0,1.0,1.0*30
$GPRMC,113133.000,A,3646.354,N,03054.610,E,243.0,007.2,080822,000.0,W*78
$GPGGA,113134.000,3646.421,N,03054.618,E,1,12,1.0,0.0,M,0.0,M,,*66
$GPGSA,A,3,01,02,03,04,05,06,07,08,09,10,11,12,1.0,1.0,1.0*30
$GPRMC,113134.000,A,3646.421,N,03054.618,E,243.0,328.2,080822,000.0,W*7C
$GPGGA,113135.000,3646.482,N,03054.581,E,1,12,1.0,0.0,M,0.0,M,,*6D
$GPGSA,A,3,01,02,03,04,05,06,07,08,09,10,11,12,1.0,1.0,1.0*30
$GPRMC,113135.000,A,3646.482,N,03054.581,E,243.0,303.6,080822,000.0,W*7A
$GPGGA,113136.000,3646.525,N,03054.516,E,1,12,1.0,0.0,M,0.0,M,,*6C
$GPGSA,A,3,01,02,03,04,05,06,07,08,09,10,11,12,1.0,1.0,1.0*30
$GPRMC,113136.000,A,3646.525,N,03054.516,E,243.0,303.6,080822,000.0,W*7B
$GPGGA,113137.000,3646.568,N,03054.451,E,1,12,1.0,0.0,M,0.0,M,,*66
$GPGSA,A,3,01,02,03,04,05,06,07,08,09,10,11,12,1.0,1.0,1.0*30
$GPRMC,113137.000,A,3646.568,N,03054.451,E,243.0,288.6,080822,000.0,W*73
$GPGGA,113138.000,3646.594,N,03054.373,E,1,12,1.0,0.0,M,0.0,M,,*6D
$GPGSA,A,3,01,02,03,04,05,06,07,08,09,10,11,12,1.0,1.0,1.0*30
$GPRMC,113138.000,A,3646.594,N,03054.373,E,243.0,281.8,080822,000.0,W*7F
$GPGGA,113139.000,3646.611,N,03054.292,E,1,12,1.0,0.0,M,0.0,M,,*6C
$GPGSA,A,3,01,02,03,04,05,06,07,08,09,10,11,12,1.0,1.0,1.0*30
$GPRMC,113139.000,A,3646.611,N,03054.292,E,243.0,281.8,080822,000.0,W*7E
$GPGGA,113140.000,3646.628,N,03054.210,E,1,12,1.0,0.0,M,0.0,M,,*62
$GPGSA,A,3,01,02,03,04,05,06,07,08,09,10,11,12,1.0,1.0,1.0*30
$GPRMC,113140.000,A,3646.628,N,03054.210,E,215.8,269.7,080822,000.0,W*72
$GPGGA,113141.000,3646.627,N,03054.136,E,1,12,1.0,0.0,M,0.0,M,,*6B
$GPGSA,A,3,01,02,03,04,05,06,07,08,09,10,11,12,1.0,1.0,1.0*30
$GPRMC,113141.000,A,3646.627,N,03054.136,E,215.8,269.7,080822,000.0,W*7B
$GPGGA,113142.000,3646.627,N,03054.061,E,1,12,1.0,0.0,M,0.0,M,,*6B
$GPGSA,A,3,01,02,03,04,05,06,07,08,09,10,11,12,1.0,1.0,1.0*30
$GPRMC,113142.000,A,3646.627,N,03054.061,E,215.8,259.2,080822,000.0,W*7D
$GPGGA,113143.000,3646.613,N,03053.988,E,1,12,1.0,0.0,M,0.0,M,,*64
$GPGSA,A,3,01,02,03,04,05,06,07,08,09,10,11,12,1.0,1.0,1.0*30
$GPRMC,113143.000,A,3646.613,N,03053.988,E,215.8,248.1,080822,000.0,W*71
$GPGGA,113144.000,3646.586,N,03053.921,E,1,12,1.0,0.0,M,0.0,M,,*6F
$GPGSA,A,3,01,02,03,04,05,06,07,08,09,10,11,12,1.0,1.0,1.0*30
$GPRMC,113144.000,A,3646.586,N,03053.921,E,215.8,245.5,080822,000.0,W*73
$GPGGA,113145.000,3646.557,N,03053.856,E,1,12,1.0,0.0,M,0.0,M,,*63
$GPGSA,A,3,01,02,03,04,05,06,07,08,09,10,11,12,1.0,1.0,1.0*30
$GPRMC,113145.000,A,3646.557,N,03053.856,E,215.8,256.6,080822,000.0,W*7E
$GPGGA,113146.000,3646.540,N,03053.785,E,1,12,1.0,0.0,M,0.0,M,,*67
$GPGSA,A,3,01,02,03,04,05,06,07,08,09,10,11,12,1.0,1.0,1.0*30
$GPRMC,113146.000,A,3646.540,N,03053.785,E,182.7,246.8,080822,000.0,W*77
$GPGGA,113147.000,3646.516,N,03053.729,E,1,12,1.0,0.0,M,0.0,M,,*63
$GPGSA,A,3,01,02,03,04,05,06,07,08,09,10,11,12,1.0,1.0,1.0*30
$GPRMC,113147.000,A,3646.516,N,03053.729,E,182.7,246.8,080822,000.0,W*73
$GPGGA,113148.000,3646.492,N,03053.673,E,1,12,1.0,0.0,M,0.0,M,,*6F
$GPGSA,A,3,01,02,03,04,05,06,07,08,09,10,11,12,1.0,1.0,1.0*30
$GPRMC,113148.000,A,3646.492,N,03053.673,E,182.7,248.1,080822,000.0,W*78
$GPGGA,113149.000,3646.469,N,03053.616,E,1,12,1.0,0.0,M,0.0,M,,*69
$GPGSA,A,3,01,02,03,04,05,06,07,08,09,10,11,12,1.0,1.0,1.0*30
$GPRMC,113149.000,A,3646.469,N,03053.616,E,182.7,248.1,080822,000.0,W*7E
$GPGGA,113150.000,3646.447,N,03053.560,E,1,12,1.0,0.0,M,0.0,M,,*6F
$GPGSA,A,3,01,02,03,04,05,06,07,08,09,10,11,12,1.0,1.0,1.0*30
$GPRMC,113150.000,A,3646.447,N,03053.560,E,182.7,269.4,080822,000.0,W*7E
$GPGGA,113151.000,3646.446,N,03053.496,E,1,12,1.0,0.0,M,0.0,M,,*67
$GPGSA,A,3,01,02,03,04,05,06,07,08,09,10,11,12,1.0,1.0,1.0*30
$GPRMC,113151.000,A,3646.446,N,03053.496,E,182.7,273.6,080822,000.0,W*7F
$GPGGA,113152.000,3646.450,N,03053.433,E,1,12,1.0,0.0,M,0.0,M,,*6C
$GPGSA,A,3,01,02,03,04,05,06,07,08,09,10,11,12,1.0,1.0,1.0*30
$GPRMC,113152.000,A,3646.450,N,03053.433,E,182.7,273.6,080822,000.0,W*74
$GPGGA,113153.000,3646.454,N,03053.370,E,1,12,1.0,0.0,M,0.0,M,,*69
$GPGSA,A,3,01,02,03,04,05,06,07,08,09,10,11,12,1.0,1.0,1.0*30
$GPRMC,113153.000,A,3646.454,N,03053.370,E,182.7,292.7,080822,000.0,W*7F
$GPGGA,113154.000,3646.477,N,03053.314,E,1,12,1.0,0.0,M,0.0,M,,*6D
$GPGSA,A,3,01,02,03,04,05,06,07,08,09,10,11,12,1.0,1.0,1.0*30
$GPRMC,113154.000,A,3646.477,N,03053.314,E,182.7,288.7,080822,000.0,W*70
$GPGGA,113155.000,3646.497,N,03053.256,E,1,12,1.0,0.0,M,0.0,M,,*65
$GPGSA,A,3,01,02,03,04,05,06,07,08,09,10,11,12,1.0,1.0,1.0*30
$GPRMC,113155.000,A,3646.497,N,03053.256,E,182.7,288.7,080822,000.0,W*78
$GPGGA,113156.000,3646.517,N,03053.197,E,1,12,1.0,0.0,M,0.0,M,,*61
$GPGSA,A,3,01,02,03,04,05,06,07,08,09,10,11,12,1.0,1.0,1.0*30
$GPRMC,113156.000,A,3646.517,N,03053.197,E,182.7,308.7,080822,000.0,W*75
$GPGGA,113157.000,3646.553,N,03053.152,E,1,12,1.0,0.0,M,0.0,M,,*69
$GPGSA,A,3,01,02,03,04,05,06,07,08,09,10,11,12,1.0,1.0,1.0*30
$GPRMC,113157.000,A,3646.553,N,03053.152,E,182.7,318.2,080822,000.0,W*79
$GPGGA,113158.000,3646.594,N,03053.115,E,1,12,1.0,0.0,M,0.0,M,,*6E
$GPGSA,A,3,01,02,03,04,05,06,07,08,09,10,11,12,1.0,1.0,1.0*30
$GPRMC,113158.000,A,3646.594,N,03053.115,E,182.7,313.6,080822,000.0,W*71
$GPGGA,113159.000,3646.633,N,03053.075,E,1,12,1.0,0.0,M,0.0,M,,*66
$GPGSA,A,3,01,02,03,04,05,06,07,08,09,10,11,12,1.0,1.0,1.0*30
$GPRMC,113159.000,A,3646.633,N,03053.075,E,182.7,314.9,080822,000.0,W*71
$GPGGA,113200.000,3646.672,N,03053.035,E,1,12,1.0,0.0,M,0.0,M,,*68
$GPGSA,A,3,01,02,03,04,05,06,07,08,09,10,11,12,1.0,1.0,1.0*30
$GPRMC,113200.000,A,3646.672,N,03053.035,E,182.7,314.9,080822,000.0,W*7F
$GPGGA,113201.000,3646.712,N,03052.995,E,1,12,1.0,0.0,M,0.0,M,,*6C
$GPGSA,A,3,01,02,03,04,05,06,07,08,09,10,11,12,1.0,1.0,1.0*30
$GPRMC,113201.000,A,3646.712,N,03052.995,E,182.7,310.2,080822,000.0,W*74
$GPGGA,113202.000,3646.749,N,03052.952,E,1,12,1.0,0.0,M,0.0,M,,*6A
$GPGSA,A,3,01,02,03,04,05,06,07,08,09,10,11,12,1.0,1.0,1.0*30
$GPRMC,113202.000,A,3646.749,N,03052.952,E,182.7,310.2,080822,000.0,W*72
$GPGGA,113203.000,3646.785,N,03052.908,E,1,12,1.0,0.0,M,0.0,M,,*64
$GPGSA,A,3,01,02,03,04,05,06,07,08,09,10,11,12,1.0,1.0,1.0*30
$GPRMC,113203.000,A,3646.785,N,03052.908,E,182.7,310.2,080822,000.0,W*7C
$GPGGA,113204.000,3646.822,N,03052.864,E,1,12,1.0,0.0,M,0.0,M,,*6A
$GPGSA,A,3,01,02,03,04,05,06,07,08,09,10,11,12,1.0,1.0,1.0*30
$GPRMC,113204.000,A,3646.822,N,03052.864,E,182.7,310.2,080822,000.0,W*72
$GPGGA,113205.000,3646.859,N,03052.821,E,1,12,1.0,0.0,M,0.0,M,,*66
$GPGSA,A,3,01,02,03,04,05,06,07,08,09,10,11,12,1.0,1.0,1.0*30
$GPRMC,113205.000,A,3646.859,N,03052.821,E,182.7,308.5,080822,000.0,W*70
$GPGGA,113206.000,3646.894,N,03052.776,E,1,12,1.0,0.0,M,0.0,M,,*69
$GPGSA,A,3,01,02,03,04,05,06,07,08,09,10,11,12,1.0,1.0,1.0*30
$GPRMC,113206.000,A,3646.894,N,03052.776,E,182.7,308.5,080822,000.0,W*7F
$GPGGA,113207.000,3646.930,N,03052.731,E,1,12,1.0,0.0,M,0.0,M,,*64
$GPGSA,A,3,01,02,03,04,05,06,07,08,09,10,11,12,1.0,1.0,1.0*30
$GPRMC,113207.000,A,3646.930,N,03052.731,E,182.7,308.5,080822,000.0,W*72
$GPGGA,113208.000,3646.966,N,03052.686,E,1,12,1.0,0.0,M,0.0,M,,*65
$GPGSA,A,3,01,02,03,04,05,06,07,08,09,10,11,12,1.0,1.0,1.0*30
$GPRMC,113208.000,A,3646.966,N,03052.686,E,182.7,308.5,080822,000.0,W*73
$GPGGA,113209.000,3647.002,N,03052.641,E,1,12,1.0,0.0,M,0.0,M,,*65
$GPGSA,A,3,01,02,03,04,05,06,07,08,09,10,11,12,1.0,1.0,1.0*30
$GPRMC,113209.000,A,3647.002,N,03052.641,E,182.7,308.5,080822,000.0,W*73
$GPGGA,113210.000,3647.037,N,03052.596,E,1,12,1.0,0.0,M,0.0,M,,*62
$GPGSA,A,3,01,02,03,04,05,06,07,08,09,10,11,12,1.0,1.0,1.0*30
$GPRMC,113210.000,A,3647.037,N,03052.596,E,182.7,308.5,080822,000.0,W*74
$GPGGA,113211.000,3647.073,N,03052.551,E,1,12,1.0,0.0,M,0.0,M,,*68
$GPGSA,A,3,01,02,03,04,05,06,07,08,09,10,11,12,1.0,1.0,1.0*30
$GPRMC,113211.000,A,3647.073,N,03052.551,E,182.7,308.5,080822,000.0,W*7E
$GPGGA,113212.000,3647.109,N,03052.506,E,1,12,1.0,0.0,M,0.0,M,,*65
$GPGSA,A,3,01,02,03,04,05,06,07,08,09,10,11,12,1.0,1.0,1.0*30
$GPRMC,113212.000,A,3647.109,N,03052.506,E,182.7,308.5,080822,000.0,W*73
$GPGGA,113213.000,3647.144,N,03052.461,E,1,12,1.0,0.0,M,0.0,M,,*6D
$GPGSA,A,3,01,02,03,04,05,06,07,08,09,10,11,12,1.0,1.0,1.0*30
$GPRMC,113213.000,A,3647.144,N,03052.461,E,182.7,308.5,080822,000.0,W*7B
$GPGGA,113214.000,3647.180,N,03052.416,E,1,12,1.0,0.0,M,0.0,M,,*62
$GPGSA,A,3,01,02,03,04,05,06,07,08,09,10,11,12,1.0,1.0,1.0*30
$GPRMC,113214.000,A,3647.180,N,03052.416,E,182.7,308.5,080822,000.0,W*74
$GPGGA,113215.000,3647.216,N,03052.371,E,1,12,1.0,0.0,M,0.0,M,,*69
$GPGSA,A,3,01,02,03,04,05,06,07,08,09,10,11,12,1.0,1.0,1.0*30
$GPRMC,113215.000,A,3647.216,N,03052.371,E,182.7,308.5,080822,000.0,W*7F
$GPGGA,113216.000,3647.251,N,03052.326,E,1,12,1.0,0.0,M,0.0,M,,*6B
$GPGSA,A,3,01,02,03,04,05,06,07,08,09,10,11,12,1.0,1.0,1.0*30
$GPRMC,113216.000,A,3647.251,N,03052.326,E,182.7,308.5,080822,000.0,W*7D
$GPGGA,113217.000,3647.287,N,03052.281,E,1,12,1.0,0.0,M,0.0,M,,*6D
$GPGSA,A,3,01,02,03,04,05,06,07,08,09,10,11,12,1.0,1.0,1.0*30
$GPRMC,113217.000,A,3647.287,N,03052.281,E,182.7,308.5,080822,000.0,W*7B
$GPGGA,113218.000,3647.323,N,03052.235,E,1,12,1.0,0.0,M,0.0,M,,*62
$GPGSA,A,3,01,02,03,04,05,06,07,08,09,10,11,12,1.0,1.0,1.0*30
$GPRMC,113218.000,A,3647.323,N,03052.235,E,182.7,308.5,080822,000.0,W*74
$GPGGA,113219.000,3647.358,N,03052.190,E,1,12,1.0,0.0,M,0.0,M,,*63
$GPGSA,A,3,01,02,03,04,05,06,07,08,09,10,11,12,1.0,1.0,1.0*30
$GPRMC,113219.000,A,3647.358,N,03052.190,E,182.7,309.4,080822,000.0,W*75
$GPGGA,113220.000,3647.395,N,03052.146,E,1,12,1.0,0.0,M,0.0,M,,*63
$GPGSA,A,3,01,02,03,04,05,06,07,08,09,10,11,12,1.0,1.0,1.0*30
$GPRMC,113220.000,A,3647.395,N,03052.146,E,182.7,309.4,080822,000.0,W*75
$GPGGA,113221.000,3647.431,N,03052.102,E,1,12,1.0,0.0,M,0.0,M,,*6B
$GPGSA,A,3,01,02,03,04,05,06,07,08,09,10,11,12,1.0,1.0,1.0*30
$GPRMC,113221.000,A,3647.431,N,03052.102,E,182.7,309.4,080822,000.0,W*7D
$GPGGA,113222.000,3647.467,N,03052.058,E,1,12,1.0,0.0,M,0.0,M,,*65
$GPGSA,A,3,01,02,03,04,05,06,07,08,09,10,11,12,1.0,1.0,1.0*30
$GPRMC,113222.000,A,3647.467,N,03052.058,E,182.7,309.4,080822,000.0,W*73
$GPGGA,113223.000,3647.503,N,03052.013,E,1,12,1.0,0.0,M,0.0,M,,*68
$GPGSA,A,3,01,02,03,04,05,06,07,08,09,10,11,12,1.0,1.0,1.0*30
$GPRMC,113223.000,A,3647.503,N,03052.013,E,182.7,309.4,080822,000.0,W*7E
$GPGGA,113224.000,3647.540,N,03051.969,E,1,12,1.0,0.0,M,0.0,M,,*6F
$GPGSA,A,3,01,02,03,04,05,06,07,08,09,10,11,12,1.0,1.0,1.0*30
$GPRMC,113224.000,A,3647.540,N,03051.969,E,182.7,309.4,080822,000.0,W*79
$GPGGA,113225.000,3647.576,N,03051.925,E,1,12,1.0,0.0,M,0.0,M,,*63
$GPGSA,A,3,01,02,03,04,05,06,07,08,09,10,11,12,1.0,1.0,1.0*30
$GPRMC,113225.000,A,3647.576,N,03051.925,E,182.7,309.4,080822,000.0,W*75
$GPGGA,113226.000,3647.612,N,03051.880,E,1,12,1.0,0.0,M,0.0,M,,*6F
$GPGSA,A,3,01,02,03,04,05,06,07,08,09,10,11,12,1.0,1.0,1.0*30
$GPRMC,113226.000,A,3647.612,N,03051.880,E,182.7,309.4,080822,000.0,W*79
$GPGGA,113227.000,3647.648,N,03051.836,E,1,12,1.0,0.0,M,0.0,M,,*6C
$GPGSA,A,3,01,02,03,04,05,06,07,08,09,10,11,12,1.0,1.0,1.0*30
$GPRMC,113227.000,A,3647.648,N,03051.836,E,182.7,309.4,080822,000.0,W*7A
$GPGGA,113228.000,3647.685,N,03051.792,E,1,12,1.0,0.0,M,0.0,M,,*63
$GPGSA,A,3,01,02,03,04,05,06,07,08,09,10,11,12,1.0,1.0,1.0*30
$GPRMC,113228.000,A,3647.685,N,03051.792,E,182.7,309.4,080822,000.0,W*75
$GPGGA,113229.000,3647.721,N,03051.747,E,1,12,1.0,0.0,M,0.0,M,,*65
$GPGSA,A,3,01,02,03,04,05,06,07,08,09,10,11,12,1.0,1.0,1.0*30
$GPRMC,113229.000,A,3647.721,N,03051.747,E,182.7,309.4,080822,000.0,W*73
$GPGGA,113230.000,3647.757,N,03051.703,E,1,12,1.0,0.0,M,0.0,M,,*6C
$GPGSA,A,3,01,02,03,04,05,06,07,08,09,10,11,12,1.0,1.0,1.0*30
$GPRMC,113230.000,A,3647.757,N,03051.703,E,182.7,309.4,080822,000.0,W*7A
$GPGGA,113231.000,3647.793,N,03051.659,E,1,12,1.0,0.0,M,0.0,M,,*6B
$GPGSA,A,3,01,02,03,04,05,06,07,08,09,10,11,12,1.0,1.0,1.0*30
$GPRMC,113231.000,A,3647.793,N,03051.659,E,182.7,309.4,080822,000.0,W*7D
$GPGGA,113232.000,3647.830,N,03051.615,E,1,12,1.0,0.0,M,0.0,M,,*66
$GPGSA,A,3,01,02,03,04,05,06,07,08,09,10,11,12,1.0,1.0,1.0*30
$GPRMC,113232.000,A,3647.830,N,03051.615,E,171.1,299.4,080822,000.0,W*72
$GPGGA,113233.000,3647.857,N,03051.566,E,1,12,1.0,0.0,M,0.0,M,,*61
$GPGSA,A,3,01,02,03,04,05,06,07,08,09,10,11,12,1.0,1.0,1.0*30
$GPRMC,113233.000,A,3647.857,N,03051.566,E,171.1,299.4,080822,000.0,W*75
$GPGGA,113234.000,3647.884,N,03051.517,E,1,12,1.0,0.0,M,0.0,M,,*6E
$GPGSA,A,3,01,02,03,04,05,06,07,08,09,10,11,12,1.0,1.0,1.0*30
$GPRMC,113234.000,A,3647.884,N,03051.517,E,171.1,299.4,080822,000.0,W*7A
$GPGGA,113235.000,3647.911,N,03051.469,E,1,12,1.0,0.0,M,0.0,M,,*6A
$GPGSA,A,3,01,02,03,04,05,06,07,08,09,10,11,12,1.0,1.0,1.0*30
$GPRMC,113235.000,A,3647.911,N,03051.469,E,171.1,299.4,080822,000.0,W*7E
$GPGGA,113236.000,3647.939,N,03051.420,E,1,12,1.0,0.0,M,0.0,M,,*6E
$GPGSA,A,3,01,02,03,04,05,06,07,08,09,10,11,12,1.0,1.0,1.0*30
$GPRMC,113236.000,A,3647.939,N,03051.420,E,171.1,299.4,080822,000.0,W*7A
$GPGGA,113237.000,3647.966,N,03051.372,E,1,12,1.0,0.0,M,0.0,M,,*65
$GPGSA,A,3,01,02,03,04,05,06,07,08,09,10,11,12,1.0,1.0,1.0*30
$GPRMC,113237.000,A,3647.966,N,03051.372,E,171.1,299.4,080822,000.0,W*71
$GPGGA,113238.000,3647.993,N,03051.323,E,1,12,1.0,0.0,M,0.0,M,,*64
$GPGSA,A,3,01,02,03,04,05,06,07,08,09,10,11,12,1.0,1.0,1.0*30
$GPRMC,113238.000,A,3647.993,N,03051.323,E,171.1,299.4,080822,000.0,W*70
$GPGGA,113239.000,3648.021,N,03051.275,E,1,12,1.0,0.0,M,0.0,M,,*68
$GPGSA,A,3,01,02,03,04,05,06,07,08,09,10,11,12,1.0,1.0,1.0*30
$GPRMC,113239.000,A,3648.021,N,03051.275,E,171.1,299.4,080822,000.0,W*7C
$GPGGA,113240.000,3648.048,N,03051.226,E,1,12,1.0,0.0,M,0.0,M,,*6F
$GPGSA,A,3,01,02,03,04,05,06,07,08,09,10,11,12,1.0,1.0,1.0*30
$GPRMC,113240.000,A,3648.048,N,03051.226,E,171.1,299.4,080822,000.0,W*7B
$GPGGA,113241.000,3648.075,N,03051.178,E,1,12,1.0,0.0,M,0.0,M,,*68
$GPGSA,A,3,01,02,03,04,05,06,07,08,09,10,11,12,1.0,1.0,1.0*30
$GPRMC,113241.000,A,3648.075,N,03051.178,E,171.1,299.4,080822,000.0,W*7C
$GPGGA,113242.000,3648.102,N,03051.129,E,1,12,1.0,0.0,M,0.0,M,,*6E
$GPGSA,A,3,01,02,03,04,05,06,07,08,09,10,11,12,1.0,1.0,1.0*30
$GPRMC,113242.000,A,3648.102,N,03051.129,E,171.1,299.4,080822,000.0,W*7A
$GPGGA,113243.000,3648.130,N,03051.081,E,1,12,1.0,0.0,M,0.0,M,,*6D
$GPGSA,A,3,01,02,03,04,05,06,07,08,09,10,11,12,1.0,1.0,1.0*30
$GPRMC,113243.000,A,3648.130,N,03051.081,E,171.1,299.4,080822,000.0,W*79
$GPGGA,113244.000,3648.157,N,03051.032,E,1,12,1.0,0.0,M,0.0,M,,*63
$GPGSA,A,3,01,02,03,04,05,06,07,08,09,10,11,12,1.0,1.0,1.0*30
$GPRMC,113244.000,A,3648.157,N,03051.032,E,171.1,299.4,080822,000.0,W*77
$GPGGA,113245.000,3648.184,N,03050.983,E,1,12,1.0,0.0,M,0.0,M,,*6E
$GPGSA,A,3,01,02,03,04,05,06,07,08,09,10,11,12,1.0,1.0,1.0*30
$GPRMC,113245.000,A,3648.184,N,03050.983,E,171.1,298.9,080822,000.0,W*76
$GPGGA,113246.000,3648.211,N,03050.935,E,1,12,1.0,0.0,M,0.0,M,,*6F
$GPGSA,A,3,01,02,03,04,05,06,07,08,09,10,11,12,1.0,1.0,1.0*30
$GPRMC,113246.000,A,3648.211,N,03050.935,E,171.1,298.9,080822,000.0,W*77
$GPGGA,113247.000,3648.238,N,03050.886,E,1,12,1.0,0.0,M,0.0,M,,*6C
$GPGSA,A,3,01,02,03,04,05,06,07,08,09,10,11,12,1.0,1.0,1.0*30
$GPRMC,113247.000,A,3648.238,N,03050.886,E,171.1,298.9,080822,000.0,W*74
$GPGGA,113248.000,3648.265,N,03050.837,E,1,12,1.0,0.0,M,0.0,M,,*61
$GPGSA,A,3,01,02,03,04,05,06,07,08,09,10,11,12,1.0,1.0,1.0*30
$GPRMC,113248.000,A,3648.265,N,03050.837,E,171.1,298.9,080822,000.0,W*79
$GPGGA,113249.000,3648.292,N,03050.788,E,1,12,1.0,0.0,M,0.0,M,,*63
$GPGSA,A,3,01,02,03,04,05,06,07,08,09,10,11,12,1.0,1.0,1.0*30
$GPRMC,113249.000,A,3648.292,N,03050.788,E,171.1,298.9,080822,000.0,W*7B
$GPGGA,113250.000,3648.319,N,03050.739,E,1,12,1.0,0.0,M,0.0,M,,*63
$GPGSA,A,3,01,02,03,04,05,06,07,08,09,10,11,12,1.0,1.0,1.0*30
$GPRMC,113250.000,A,3648.319,N,03050.739,E,171.1,298.9,080822,000.0,W*7B
$GPGGA,113251.000,3648.345,N,03050.690,E,1,12,1.0,0.0,M,0.0,M,,*69
$GPGSA,A,3,01,02,03,04,05,06,07,08,09,10,11,12,1.0,1.0,1.0*30
$GPRMC,113251.000,A,3648.345,N,03050.690,E,171.1,298.9,080822,000.0,W*71
$GPGGA,113252.000,3648.372,N,03050.641,E,1,12,1.0,0.0,M,0.0,M,,*62
$GPGSA,A,3,01,02,03,04,05,06,07,08,09,10,11,12,1.0,1.0,1.0*30
$GPRMC,113252.000,A,3648.372,N,03050.641,E,171.1,298.9,080822,000.0,W*7A
$GPGGA,113253.000,3648.399,N,03050.592,E,1,12,1.0,0.0,M,0.0,M,,*6B
$GPGSA,A,3,01,02,03,04,05,06,07,08,09,10,11,12,1.0,1.0,1.0*30
$GPRMC,113253.000,A,3648.399,N,03050.592,E,171.1,297.7,080822,000.0,W*72
$GPGGA,113254.000,3648.425,N,03050.543,E,1,12,1.0,0.0,M,0.0,M,,*60
$GPGSA,A,3,01,02,03,04,05,06,07,08,09,10,11,12,1.0,1.0,1.0*30
$GPRMC,113254.000,A,3648.425,N,03050.543,E,171.1,297.7,080822,000.0,W*79
$GPGGA,113255.000,3648.451,N,03050.493,E,1,12,1.0,0.0,M,0.0,M,,*6E
$GPGSA,A,3,01,02,03,04,05,06,07,08,09,10,11,12,1.0,1.0,1.0*30
$GPRMC,113255.000,A,3648.451,N,03050.493,E,171.1,307.6,080822,000.0,W*7E
$GPGGA,113256.000,3648.484,N,03050.450,E,1,12,1.0,0.0,M,0.0,M,,*6A
$GPGSA,A,3,01,02,03,04,05,06,07,08,09,10,11,12,1.0,1.0,1.0*30
$GPRMC,113256.000,A,3648.484,N,03050.450,E,171.1,307.6,080822,000.0,W*7A
$GPGGA,113257.000,3648.517,N,03050.408,E,1,12,1.0,0.0,M,0.0,M,,*6D
$GPGSA,A,3,01,02,03,04,05,06,07,08,09,10,11,12,1.0,1.0,1.0*30
$GPRMC,113257.000,A,3648.517,N,03050.408,E,171.1,307.6,080822,000.0,W*7D
$GPGGA,113258.000,3648.550,N,03050.365,E,1,12,1.0,0.0,M,0.0,M,,*6D
$GPGSA,A,3,01,02,03,04,05,06,07,08,09,10,11,12,1.0,1.0,1.0*30
$GPRMC,113258.000,A,3648.550,N,03050.365,E,171.1,321.3,080822,000.0,W*7C
$GPGGA,113259.000,3648.590,N,03050.333,E,1,12,1.0,0.0,M,0.0,M,,*63
$GPGSA,A,3,01,02,03,04,05,06,07,08,09,10,11,12,1.0,1.0,1.0*30
$GPRMC,113259.000,A,3648.590,N,03050.333,E,171.1,321.3,080822,000.0,W*72
$GPGGA,113300.000,3648.630,N,03050.301,E,1,12,1.0,0.0,M,0.0,M,,*66
$GPGSA,A,3,01,02,03,04,05,06,07,08,09,10,11,12,1.0,1.0,1.0*30
$GPRMC,113300.000,A,3648.630,N,03050.301,E,171.1,321.3,080822,000.0,W*77
$GPGGA,113301.000,3648.670,N,03050.269,E,1,12,1.0,0.0,M,0.0,M,,*6C
$GPGSA,A,3,01,02,03,04,05,06,07,08,09,10,11,12,1.0,1.0,1.0*30
$GPRMC,113301.000,A,3648.670,N,03050.269,E,171.1,341.3,080822,000.0,W*7B
$GPGGA,113302.000,3648.716,N,03050.253,E,1,12,1.0,0.0,M,0.0,M,,*67
$GPGSA,A,3,01,02,03,04,05,06,07,08,09,10,11,12,1.0,1.0,1.0*30
$GPRMC,113302.000,A,3648.716,N,03050.253,E,171.1,341.3,080822,000.0,W*70
$GPGGA,113303.000,3648.761,N,03050.238,E,1,12,1.0,0.0,M,0.0,M,,*6B
$GPGSA,A,3,01,02,03,04,05,06,07,08,09,10,11,12,1.0,1.0,1.0*30
$GPRMC,113303.000,A,3648.761,N,03050.238,E,171.1,341.3,080822,000.0,W*7C
$GPGGA,113304.000,3648.807,N,03050.222,E,1,12,1.0,0.0,M,0.0,M,,*68
$GPGSA,A,3,01,02,03,04,05,06,07,08,09,10,11,12,1.0,1.0,1.0*30
$GPRMC,113304.000,A,3648.807,N,03050.222,E,171.1,031.9,080822,000.0,W*71
$GPGGA,113305.000,3648.850,N,03050.249,E,1,12,1.0,0.0,M,0.0,M,,*66
$GPGSA,A,3,01,02,03,04,05,06,07,08,09,10,11,12,1.0,1.0,1.0*30
$GPRMC,113305.000,A,3648.850,N,03050.249,E,171.1,031.9,080822,000.0,W*7F
$GPGGA,113306.000,3648.892,N,03050.275,E,1,12,1.0,0.0,M,0.0,M,,*64
$GPGSA,A,3,01,02,03,04,05,06,07,08,09,10,11,12,1.0,1.0,1.0*30
$GPRMC,113306.000,A,3648.892,N,03050.275,E,171.1,040.8,080822,000.0,W*7A
$GPGGA,113307.000,3648.931,N,03050.309,E,1,12,1.0,0.0,M,0.0,M,,*67
$GPGSA,A,3,01,02,03,04,05,06,07,08,09,10,11,12,1.0,1.0,1.0*30
$GPRMC,113307.000,A,3648.931,N,03050.309,E,171.1,040.4,080822,000.0,W*75
$GPGGA,113308.000,3648.970,N,03050.342,E,1,12,1.0,0.0,M,0.0,M,,*62
$GPGSA,A,3,01,02,03,04,05,06,07,08,09,10,11,12,1.0,1.0,1.0*30
$GPRMC,113308.000,A,3648.970,N,03050.342,E,171.1,040.4,080822,000.0,W*70
$GPGGA,113309.000,3649.010,N,03050.376,E,1,12,1.0,0.0,M,0.0,M,,*6A
$GPGSA,A,3,01,02,03,04,05,06,07,08,09,10,11,12,1.0,1.0,1.0*30
$GPRMC,113309.000,A,3649.010,N,03050.376,E,171.1,040.4,080822,000.0,W*78
$GPGGA,113310.000,3649.049,N,03050.409,E,1,12,1.0,0.0,M,0.0,M,,*61
$GPGSA,A,3,01,02,03,04,05,06,07,08,09,10,11,12,1.0,1.0,1.0*30
$GPRMC,113310.000,A,3649.049,N,03050.409,E,171.1,040.4,080822,000.0,W*73
$GPGGA,113311.000,3649.088,N,03050.443,E,1,12,1.0,0.0,M,0.0,M,,*63
$GPGSA,A,3,01,02,03,04,05,06,07,08,09,10,11,12,1.0,1.0,1.0*30
$GPRMC,113311.000,A,3649.088,N,03050.443,E,171.1,041.6,080822,000.0,W*72
$GPGGA,113312.000,3649.127,N,03050.477,E,1,12,1.0,0.0,M,0.0,M,,*63
$GPGSA,A,3,01,02,03,04,05,06,07,08,09,10,11,12,1.0,1.0,1.0*30
$GPRMC,113312.000,A,3649.127,N,03050.477,E,171.1,041.6,080822,000.0,W*72
$GPGGA,113313.000,3649.165,N,03050.512,E,1,12,1.0,0.0,M,0.0,M,,*66
$GPGSA,A,3,01,02,03,04,05,06,07,08,09,10,11,12,1.0,1.0,1.0*30
$GPRMC,113313.000,A,3649.165,N,03050.512,E,171.1,041.6,080822,000.0,W*77
$GPGGA,113314.000,3649.204,N,03050.546,E,1,12,1.0,0.0,M,0.0,M,,*64
$GPGSA,A,3,01,02,03,04,05,06,07,08,09,10,11,12,1.0,1.0,1.0*30
$GPRMC,113314.000,A,3649.204,N,03050.546,E,171.1,041.6,080822,000.0,W*75
$GPGGA,113315.000,3649.243,N,03050.580,E,1,12,1.0,0.0,M,0.0,M,,*6C
$GPGSA,A,3,01,02,03,04,05,06,07,08,09,10,11,12,1.0,1.0,1.0*30
$GPRMC,113315.000,A,3649.243,N,03050.580,E,171.1,041.6,080822,000.0,W*7D
$GPGGA,113316.000,3649.281,N,03050.615,E,1,12,1.0,0.0,M,0.0,M,,*6E
$GPGSA,A,3,01,02,03,04,05,06,07,08,09,10,11,12,1.0,1.0,1.0*30
$GPRMC,113316.000,A,3649.281,N,03050.615,E,171.1,041.6,080822,000.0,W*7F
$GPGGA,113317.000,3649.320,N,03050.649,E,1,12,1.0,0.0,M,0.0,M,,*6C
$GPGSA,A,3,01,02,03,04,05,06,07,08,09,10,11,12,1.0,1.0,1.0*30
$GPRMC,113317.000,A,3649.320,N,03050.649,E,171.1,041.6,080822,000.0,W*7D
$GPGGA,113318.000,3649.359,N,03050.684,E,1,12,1.0,0.0,M,0.0,M,,*6C
$GPGSA,A,3,01,02,03,04,05,06,07,08,09,10,11,12,1.0,1.0,1.0*30
$GPRMC,113318.000,A,3649.359,N,03050.684,E,171.1,041.6,080822,000.0,W*7D
$GPGGA,113319.000,3649.397,N,03050.718,E,1,12,1.0,0.0,M,0.0,M,,*6B
$GPGSA,A,3,01,02,03,04,05,06,07,08,09,10,11,12,1.0,1.0,1.0*30
$GPRMC,113319.000,A,3649.397,N,03050.718,E,171.1,041.6,080822,000.0,W*7A
$GPGGA,113320.000,3649.436,N,03050.753,E,1,12,1.0,0.0,M,0.0,M,,*62
$GPGSA,A,3,01,02,03,04,05,06,07,08,09,10,11,12,1.0,1.0,1.0*30
$GPRMC,113320.000,A,3649.436,N,03050.753,E,171.1,041.6,080822,000.0,W*73
$GPGGA,113321.000,3649.475,N,03050.787,E,1,12,1.0,0.0,M,0.0,M,,*6D
$GPGSA,A,3,01,02,03,04,05,06,07,08,09,10,11,12,1.0,1.0,1.0*30
$GPRMC,113321.000,A,3649.475,N,03050.787,E,171.1,041.6,080822,000.0,W*7C
$GPGGA,113322.000,3649.513,N,03050.822,E,1,12,1.0,0.0,M,0.0,M,,*6F
$GPGSA,A,3,01,02,03,04,05,06,07,08,09,10,11,12,1.0,1.0,1.0*30
$GPRMC,113322.000,A,3649.513,N,03050.822,E,171.1,050.7,080822,000.0,W*7F
$GPGGA,113323.000,3649.547,N,03050.863,E,1,12,1.0,0.0,M,0.0,M,,*6A
$GPGSA,A,3,01,02,03,04,05,06,07,08,09,10,11,12,1.0,1.0,1.0*30
$GPRMC,113323.000,A,3649.547,N,03050.863,E,171.1,050.7,080822,000.0,W*7A
$GPGGA,113324.000,3649.581,N,03050.905,E,1,12,1.0,0.0,M,0.0,M,,*66
$GPGSA,A,3,01,02,03,04,05,06,07,08,09,10,11,12,1.0,1.0,1.0*30
$GPRMC,113324.000,A,3649.581,N,03050.905,E,171.1,050.7,080822,000.0,W*76
$GPGGA,113325.000,3649.615,N,03050.946,E,1,12,1.0,0.0,M,0.0,M,,*6E
$GPGSA,A,3,01,02,03,04,05,06,07,08,09,10,11,12,1.0,1.0,1.0*30
$GPRMC,113325.000,A,3649.615,N,03050.946,E,171.1,050.7,080822,000.0,W*7E
$GPGGA,113326.000,3649.649,N,03050.988,E,1,12,1.0,0.0,M,0.0,M,,*66
$GPGSA,A,3,01,02,03,04,05,06,07,08,09,10,11,12,1.0,1.0,1.0*30
$GPRMC,113326.000,A,3649.649,N,03050.988,E,171.1,051.1,080822,000.0,W*71
$GPGGA,113327.000,3649.683,N,03051.029,E,1,12,1.0,0.0,M,0.0,M,,*62
$GPGSA,A,3,01,02,03,04,05,06,07,08,09,10,11,12,1.0,1.0,1.0*30
$GPRMC,113327.000,A,3649.683,N,03051.029,E,171.1,051.1,080822,000.0,W*75
$GPGGA,113328.000,3649.716,N,03051.071,E,1,12,1.0,0.0,M,0.0,M,,*6D
$GPGSA,A,3,01,02,03,04,05,06,07,08,09,10,11,12,1.0,1.0,1.0*30
$GPRMC,113328.000,A,3649.716,N,03051.071,E,171.1,051.1,080822,000.0,W*7A
$GPGGA,113329.000,3649.750,N,03051.113,E,1,12,1.0,0.0,M,0.0,M,,*6B
$GPGSA,A,3,01,02,03,04,05,06,07,08,09,10,11,12,1.0,1.0,1.0*30
$GPRMC,113329.000,A,3649.750,N,03051.113,E,171.1,051.1,080822,000.0,W*7C
$GPGGA,113330.000,3649.784,N,03051.155,E,1,12,1.0,0.0,M,0.0,M,,*68
$GPGSA,A,3,01,02,03,04,05,06,07,08,09,10,11,12,1.0,1.0,1.0*30
$GPRMC,113330.000,A,3649.784,N,03051.155,E,171.1,051.1,080822,000.0,W*7F
$GPGGA,113331.000,3649.817,N,03051.197,E,1,12,1.0,0.0,M,0.0,M,,*62
$GPGSA,A,3,01,02,03,04,05,06,07,08,09,10,11,12,1.0,1.0,1.0*30
$GPRMC,113331.000,A,3649.817,N,03051.197,E,171.1,051.1,080822,000.0,W*75
$GPGGA,113332.000,3649.851,N,03051.239,E,1,12,1.0,0.0,M,0.0,M,,*64
$GPGSA,A,3,01,02,03,04,05,06,07,08,09,10,11,12,1.0,1.0,1.0*30
$GPRMC,113332.000,A,3649.851,N,03051.239,E,171.1,058.8,080822,000.0,W*73
$GPGGA,113333.000,3649.880,N,03051.286,E,1,12,1.0,0.0,M,0.0,M,,*6D
$GPGSA,A,3,01,02,03,04,05,06,07,08,09,10,11,12,1.0,1.0,1.0*30
$GPRMC,113333.000,A,3649.880,N,03051.286,E,171.1,058.8,080822,000.0,W*7A
$GPGGA,113334.000,3649.908,N,03051.333,E,1,12,1.0,0.0,M,0.0,M,,*64
$GPGSA,A,3,01,02,03,04,05,06,07,08,09,10,11,12,1.0,1.0,1.0*30
$GPRMC,113334.000,A,3649.908,N,03051.333,E,171.1,058.8,080822,000.0,W*73
$GPGGA,113335.000,3649.937,N,03051.381,E,1,12,1.0,0.0,M,0.0,M,,*60
$GPGSA,A,3,01,02,03,04,05,06,07,08,09,10,11,12,1.0,1.0,1.0*30
$GPRMC,113335.000,A,3649.937,N,03051.381,E,171.1,058.8,080822,000.0,W*77
$GPGGA,113336.000,3649.965,N,03051.428,E,1,12,1.0,0.0,M,0.0,M,,*60
$GPGSA,A,3,01,02,03,04,05,06,07,08,09,10,11,12,1.0,1.0,1.0*30
$GPRMC,113336.000,A,3649.965,N,03051.428,E,171.1,058.8,080822,000.0,W*77
$GPGGA,113337.000,3649.994,N,03051.475,E,1,12,1.0,0.0,M,0.0,M,,*67
$GPGSA,A,3,01,02,03,04,05,06,07,08,09,10,11,12,1.0,1.0,1.0*30
$GPRMC,113337.000,A,3649.994,N,03051.475,E,171.1,058.8,080822,000.0,W*70
$GPGGA,113338.000,3650.023,N,03051.523,E,1,12,1.0,0.0,M,0.0,M,,*67
$GPGSA,A,3,01,02,03,04,05,06,07,08,09,10,11,12,1.0,1.0,1.0*30
$GPRMC,113338.000,A,3650.023,N,03051.523,E,171.1,058.8,080822,000.0,W*70
$GPGGA,113339.000,3650.051,N,03051.570,E,1,12,1.0,0.0,M,0.0,M,,*65
$GPGSA,A,3,01,02,03,04,05,06,07,08,09,10,11,12,1.0,1.0,1.0*30
$GPRMC,113339.000,A,3650.051,N,03051.570,E,171.1,058.8,080822,000.0,W*72
$GPGGA,113340.000,3650.080,N,03051.618,E,1,12,1.0,0.0,M,0.0,M,,*6A
$GPGSA,A,3,01,02,03,04,05,06,07,08,09,10,11,12,1.0,1.0,1.0*30
$GPRMC,113340.000,A,3650.080,N,03051.618,E,182.7,065.6,080822,000.0,W*77
$GPGGA,113341.000,3650.105,N,03051.673,E,1,12,1.0,0.0,M,0.0,M,,*6A
$GPGSA,A,3,01,02,03,04,05,06,07,08,09,10,11,12,1.0,1.0,1.0*30
$GPRMC,113341.000,A,3650.105,N,03051.673,E,182.7,065.6,080822,000.0,W*77
$GPGGA,113342.000,3650.130,N,03051.728,E,1,12,1.0,0.0,M,0.0,M,,*60
$GPGSA,A,3,01,02,03,04,05,06,07,08,09,10,11,12,1.0,1.0,1.0*30
$GPRMC,113342.000,A,3650.130,N,03051.728,E,182.7,065.6,080822,000.0,W*7D
$GPGGA,113343.000,3650.155,N,03051.783,E,1,12,1.0,0.0,M,0.0,M,,*63
$GPGSA,A,3,01,02,03,04,05,06,07,08,09,10,11,12,1.0,1.0,1.0*30
$GPRMC,113343.000,A,3650.155,N,03051.783,E,182.7,065.6,080822,000.0,W*7E
$GPGGA,113344.000,3650.179,N,03051.838,E,1,12,1.0,0.0,M,0.0,M,,*65
$GPGSA,A,3,01,02,03,04,05,06,07,08,09,10,11,12,1.0,1.0,1.0*30
$GPRMC,113344.000,A,3650.179,N,03051.838,E,182.7,065.6,080822,000.0,W*78
$GPGGA,113345.000,3650.204,N,03051.894,E,1,12,1.0,0.0,M,0.0,M,,*6B
$GPGSA,A,3,01,02,03,04,05,06,07,08,09,10,11,12,1.0,1.0,1.0*30
$GPRMC,113345.000,A,3650.204,N,03051.894,E,182.7,065.6,080822,000.0,W*76
$GPGGA,113346.000,3650.229,N,03051.949,E,1,12,1.0,0.0,M,0.0,M,,*66
$GPGSA,A,3,01,02,03,04,05,06,07,08,09,10,11,12,1.0,1.0,1.0*30
$GPRMC,113346.000,A,3650.229,N,03051.949,E,182.7,065.6,080822,000.0,W*7B
$GPGGA,113347.000,3650.254,N,03052.004,E,1,12,1.0,0.0,M,0.0,M,,*6E
$GPGSA,A,3,01,02,03,04,05,06,07,08,09,10,11,12,1.0,1.0,1.0*30
$GPRMC,113347.000,A,3650.254,N,03052.004,E,128.3,069.2,080822,000.0,W*7F
$GPGGA,113348.000,3650.270,N,03052.044,E,1,12,1.0,0.0,M,0.0,M,,*63
$GPGSA,A,3,01,02,03,04,05,06,07,08,09,10,11,12,1.0,1.0,1.0*30
$GPRMC,113348.000,A,3650.270,N,03052.044,E,128.3,069.2,080822,000.0,W*72
$GPGGA,113349.000,3650.285,N,03052.084,E,1,12,1.0,0.0,M,0.0,M,,*64
$GPGSA,A,3,01,02,03,04,05,06,07,08,09,10,11,12,1.0,1.0,1.0*30
$GPRMC,113349.000,A,3650.285,N,03052.084,E,128.3,069.2,080822,000.0,W*75
$GPGGA,113350.000,3650.300,N,03052.125,E,1,12,1.0,0.0,M,0.0,M,,*6A
$GPGSA,A,3,01,02,03,04,05,06,07,08,09,10,11,12,1.0,1.0,1.0*30
$GPRMC,113350.000,A,3650.300,N,03052.125,E,128.3,071.1,080822,000.0,W*71
$GPGGA,113351.000,3650.314,N,03052.165,E,1,12,1.0,0.0,M,0.0,M,,*6A
$GPGSA,A,3,01,02,03,04,05,06,07,08,09,10,11,12,1.0,1.0,1.0*30
$GPRMC,113351.000,A,3650.314,N,03052.165,E,128.3,071.1,080822,000.0,W*71
$GPGGA,113352.000,3650.328,N,03052.206,E,1,12,1.0,0.0,M,0.0,M,,*60
$GPGSA,A,3,01,02,03,04,05,06,07,08,09,10,11,12,1.0,1.0,1.0*30
$GPRMC,113352.000,A,3650.328,N,03052.206,E,128.3,071.1,080822,000.0,W*7B
$GPGGA,113353.000,3650.342,N,03052.247,E,1,12,1.0,0.0,M,0.0,M,,*68
$GPGSA,A,3,01,02,03,04,05,06,07,08,09,10,11,12,1.0,1.0,1.0*30
$GPRMC,113353.000,A,3650.342,N,03052.247,E,128.3,071.1,080822,000.0,W*73
$GPGGA,113354.000,3650.356,N,03052.288,E,1,12,1.0,0.0,M,0.0,M,,*69
$GPGSA,A,3,01,02,03,04,05,06,07,08,09,10,11,12,1.0,1.0,1.0*30
$GPRMC,113354.000,A,3650.356,N,03052.288,E,128.3,071.1,080822,000.0,W*72
$GPGGA,113355.000,3650.370,N,03052.329,E,1,12,1.0,0.0,M,0.0,M,,*66
$GPGSA,A,3,01,02,03,04,05,06,07,08,09,10,11,12,1.0,1.0,1.0*30
$GPRMC,113355.000,A,3650.370,N,03052.329,E,128.3,071.1,080822,000.0,W*7D
$GPGGA,113356.000,3650.384,N,03052.370,E,1,12,1.0,0.0,M,0.0,M,,*62
$GPGSA,A,3,01,02,03,04,05,06,07,08,09,10,11,12,1.0,1.0,1.0*30
$GPRMC,113356.000,A,3650.384,N,03052.370,E,128.3,071.1,080822,000.0,W*79
$GPGGA,113357.000,3650.398,N,03052.411,E,1,12,1.0,0.0,M,0.0,M,,*6E
$GPGSA,A,3,01,02,03,04,05,06,07,08,09,10,11,12,1.0,1.0,1.0*30
$GPRMC,113357.000,A,3650.398,N,03052.411,E,128.3,071.1,080822,000.0,W*75
$GPGGA,113358.000,3650.412,N,03052.452,E,1,12,1.0,0.0,M,0.0,M,,*63
$GPGSA,A,3,01,02,03,04,05,06,07,08,09,10,11,12,1.0,1.0,1.0*30
$GPRMC,113358.000,A,3650.412,N,03052.452,E,128.3,069.3,080822,000.0,W*73
$GPGGA,113359.000,3650.427,N,03052.492,E,1,12,1.0,0.0,M,0.0,M,,*68
$GPGSA,A,3,01,02,03,04,05,06,07,08,09,10,11,12,1.0,1.0,1.0*30
$GPRMC,113359.000,A,3650.427,N,03052.492,E,128.3,069.3,080822,000.0,W*78
$GPGGA,113400.000,3650.442,N,03052.532,E,1,12,1.0,0.0,M,0.0,M,,*6B
$GPGSA,A,3,01,02,03,04,05,06,07,08,09,10,11,12,1.0,1.0,1.0*30
$GPRMC,113400.000,A,3650.442,N,03052.532,E,128.3,069.3,080822,000.0,W*7B
$GPGGA,113401.000,3650.458,N,03052.573,E,1,12,1.0,0.0,M,0.0,M,,*64
$GPGSA,A,3,01,02,03,04,05,06,07,08,09,10,11,12,1.0,1.0,1.0*30
$GPRMC,113401.000,A,3650.458,N,03052.573,E,128.3,069.3,080822,000.0,W*74
$GPGGA,113402.000,3650.473,N,03052.613,E,1,12,1.0,0.0,M,0.0,M,,*6B
$GPGSA,A,3,01,02,03,04,05,06,07,08,09,10,11,12,1.0,1.0,1.0*30
$GPRMC,113402.000,A,3650.473,N,03052.613,E,128.3,069.3,080822,000.0,W*7B
$GPGGA,113403.000,3650.488,N,03052.653,E,1,12,1.0,0.0,M,0.0,M,,*6A
$GPGSA,A,3,01,02,03,04,05,06,07,08,09,10,11,12,1.0,1.0,1.0*30
$GPRMC,113403.000,A,3650.488,N,03052.653,E,128.3,069.3,080822,000.0,W*7A
$GPGGA,113404.000,3650.503,N,03052.693,E,1,12,1.0,0.0,M,0.0,M,,*63
$GPGSA,A,3,01,02,03,04,05,06,07,08,09,10,11,12,1.0,1.0,1.0*30
$GPRMC,113404.000,A,3650.503,N,03052.693,E,128.3,069.3,080822,000.0,W*73
$GPGGA,113405.000,3650.519,N,03052.733,E,1,12,1.0,0.0,M,0.0,M,,*62
$GPGSA,A,3,01,02,03,04,05,06,07,08,09,10,11,12,1.0,1.0,1.0*30
$GPRMC,113405.000,A,3650.519,N,03052.733,E,128.3,069.3,080822,000.0,W*72
$GPGGA,113406.000,3650.534,N,03052.774,E,1,12,1.0,0.0,M,0.0,M,,*6D
$GPGSA,A,3,01,02,03,04,05,06,07,08,09,10,11,12,1.0,1.0,1.0*30
$GPRMC,113406.000,A,3650.534,N,03052.774,E,128.3,082.3,080822,000.0,W*78
$GPGGA,113407.000,3650.540,N,03052.818,E,1,12,1.0,0.0,M,0.0,M,,*6A
$GPGSA,A,3,01,02,03,04,05,06,07,08,09,10,11,12,1.0,1.0,1.0*30
$GPRMC,113407.000,A,3650.540,N,03052.818,E,128.3,082.8,080822,000.0,W*74
$GPGGA,113408.000,3650.545,N,03052.862,E,1,12,1.0,0.0,M,0.0,M,,*6D
$GPGSA,A,3,01,02,03,04,05,06,07,08,09,10,11,12,1.0,1.0,1.0*30
$GPRMC,113408.000,A,3650.545,N,03052.862,E,128.3,088.5,080822,000.0,W*74
$GPGGA,113409.000,3650.546,N,03052.906,E,1,12,1.0,0.0,M,0.0,M,,*6C
$GPGSA,A,3,01,02,03,04,05,06,07,08,09,10,11,12,1.0,1.0,1.0*30
$GPRMC,113409.000,A,3650.546,N,03052.906,E,365.5,071.7,080822,000.0,W*7C
$GPGGA,113410.000,3650.585,N,03053.023,E,1,12,1.0,0.0,M,0.0,M,,*64
$GPGSA,A,3,01,02,03,04,05,06,07,08,09,10,11,12,1.0,1.0,1.0*30
$GPRMC,113410.000,A,3650.585,N,03053.023,E,365.5,071.7,080822,000.0,W*74
$GPGGA,113411.000,3650.624,N,03053.140,E,1,12,1.0,0.0,M,0.0,M,,*69
$GPGSA,A,3,01,02,03,04,05,06,07,08,09,10,11,12,1.0,1.0,1.0*30
$GPRMC,113411.000,A,3650.624,N,03053.140,E,365.5,071.7,080822,000.0,W*79
$GPGGA,113412.000,3650.662,N,03053.258,E,1,12,1.0,0.0,M,0.0,M,,*62
$GPGSA,A,3,01,02,03,04,05,06,07,08,09,10,11,12,1.0,1.0,1.0*30
$GPRMC,113412.000,A,3650.662,N,03053.258,E,365.5,071.7,080822,000.0,W*72
$GPGGA,113413.000,3650.701,N,03053.375,E,1,12,1.0,0.0,M,0.0,M,,*69
$GPGSA,A,3,01,02,03,04,05,06,07,08,09,10,11,12,1.0,1.0,1.0*30
$GPRMC,113413.000,A,3650.701,N,03053.375,E,365.5,071.7,080822,000.0,W*79
$GPGGA,113414.000,3650.740,N,03053.492,E,1,12,1.0,0.0,M,0.0,M,,*65
$GPGSA,A,3,01,02,03,04,05,06,07,08,09,10,11,12,1.0,1.0,1.0*30
$GPRMC,113414.000,A,3650.740,N,03053.492,E,365.4,071.7,080822,000.0,W*74
$GPGGA,113415.000,3650.779,N,03053.609,E,1,12,1.0,0.0,M,0.0,M,,*6E
$GPGSA,A,3,01,02,03,04,05,06,07,08,09,10,11,12,1.0,1.0,1.0*30
$GPRMC,113415.000,A,3650.779,N,03053.609,E,365.4,071.7,080822,000.0,W*7F
$GPGGA,113416.000,3650.817,N,03053.726,E,1,12,1.0,0.0,M,0.0,M,,*66
$GPGSA,A,3,01,02,03,04,05,06,07,08,09,10,11,12,1.0,1.0,1.0*30
$GPRMC,113416.000,A,3650.817,N,03053.726,E,365.4,071.7,080822,000.0,W*77
$GPGGA,113417.000,3650.856,N,03053.843,E,1,12,1.0,0.0,M,0.0,M,,*6E
$GPGSA,A,3,01,02,03,04,05,06,07,08,09,10,11,12,1.0,1.0,1.0*30
$GPRMC,113417.000,A,3650.856,N,03053.843,E,365.4,071.7,080822,000.0,W*7F
$GPGGA,113418.000,3650.895,N,03053.961,E,1,12,1.0,0.0,M,0.0,M,,*6F
$GPGSA,A,3,01,02,03,04,05,06,07,08,09,10,11,12,1.0,1.0,1.0*30
$GPRMC,113418.000,A,3650.895,N,03053.961,E,365.4,071.7,080822,000.0,W*7E
$GPGGA,113419.000,3650.934,N,03054.078,E,1,12,1.0,0.0,M,0.0,M,,*62
$GPGSA,A,3,01,02,03,04,05,06,07,08,09,10,11,12,1.0,1.0,1.0*30
$GPRMC,113419.000,A,3650.934,N,03054.078,E,365.4,071.7,080822,000.0,W*73
$GPGGA,113420.000,3650.972,N,03054.195,E,1,12,1.0,0.0,M,0.0,M,,*68
$GPGSA,A,3,01,02,03,04,05,06,07,08,09,10,11,12,1.0,1.0,1.0*30
$GPRMC,113420.000,A,3650.972,N,03054.195,E,365.4,071.7,080822,000.0,W*79
$GPGGA,113421.000,3651.011,N,03054.312,E,1,12,1.0,0.0,M,0.0,M,,*69
$GPGSA,A,3,01,02,03,04,05,06,07,08,09,10,11,12,1.0,1.0,1.0*30
$GPRMC,113421.000,A,3651.011,N,03054.312,E,365.4,071.7,080822,000.0,W*78
$GPGGA,113422.000,3651.050,N,03054.429,E,1,12,1.0,0.0,M,0.0,M,,*60
$GPGSA,A,3,01,02,03,04,05,06,07,08,09,10,11,12,1.0,1.0,1.0*30
$GPRMC,113422.000,A,3651.050,N,03054.429,E,365.4,071.7,080822,000.0,W*71
$GPGGA,113423.000,3651.088,N,03054.546,E,1,12,1.0,0.0,M,0.0,M,,*6C
$GPGSA,A,3,01,02,03,04,05,06,07,08,09,10,11,12,1.0,1.0,1.0*30
$GPRMC,113423.000,A,3651.088,N,03054.546,E,365.4,071.7,080822,000.0,W*7D
$GPGGA,113424.000,3651.127,N,03054.664,E,1,12,1.0,0.0,M,0.0,M,,*6C
$GPGSA,A,3,01,02,03,04,05,06,07,08,09,10,11,12,1.0,1.0,1.0*30
$GPRMC,113424.000,A,3651.127,N,03054.664,E,365.4,071.7,080822,000.0,W*7D
$GPGGA,113425.000,3651.166,N,03054.781,E,1,12,1.0,0.0,M,0.0,M,,*62
$GPGSA,A,3,01,02,03,04,05,06,07,08,09,10,11,12,1.0,1.0,1.0*30
$GPRMC,113425.000,A,3651.166,N,03054.781,E,1941.9,176.1,080822,000.0,W*43
$GPGGA,113426.000,3650.628,N,03054.818,E,1,12,1.0,0.0,M,0.0,M,,*62
$GPGSA,A,3,01,02,03,04,05,06,07,08,09,10,11,12,1.0,1.0,1.0*30
$GPRMC,113426.000,A,3650.628,N,03054.818,E,186.6,102.4,080822,000.0,W*78
$GPGGA,113427.000,3650.614,N,03054.880,E,1,12,1.0,0.0,M,0.0,M,,*6D
$GPGSA,A,3,01,02,03,04,05,06,07,08,09,10,11,12,1.0,1.0,1.0*30
$GPRMC,113427.000,A,3650.614,N,03054.880,E,186.6,102.4,080822,000.0,W*77
$GPGGA,113428.000,3650.600,N,03054.943,E,1,12,1.0,0.0,M,0.0,M,,*69
$GPGSA,A,3,01,02,03,04,05,06,07,08,09,10,11,12,1.0,1.0,1.0*30
$GPRMC,113428.000,A,3650.600,N,03054.943,E,186.6,102.4,080822,000.0,W*73
$GPGGA,113429.000,3650.586,N,03055.005,E,1,12,1.0,0.0,M,0.0,M,,*6F
$GPGSA,A,3,01,02,03,04,05,06,07,08,09,10,11,12,1.0,1.0,1.0*30
$GPRMC,113429.000,A,3650.586,N,03055.005,E,186.6,111.8,080822,000.0,W*7B
$GPGGA,113430.000,3650.563,N,03055.063,E,1,12,1.0,0.0,M,0.0,M,,*6C
$GPGSA,A,3,01,02,03,04,05,06,07,08,09,10,11,12,1.0,1.0,1.0*30
$GPRMC,113430.000,A,3650.563,N,03055.063,E,186.6,111.8,080822,000.0,W*78
$GPGGA,113431.000,3650.540,N,03055.121,E,1,12,1.0,0.0,M,0.0,M,,*6B
$GPGSA,A,3,01,02,03,04,05,06,07,08,09,10,11,12,1.0,1.0,1.0*30
$GPRMC,113431.000,A,3650.540,N,03055.121,E,186.6,111.8,080822,000.0,W*7F
$GPGGA,113432.000,3650.517,N,03055.179,E,1,12,1.0,0.0,M,0.0,M,,*67
$GPGSA,A,3,01,02,03,04,05,06,07,08,09,10,11,12,1.0,1.0,1.0*30
$GPRMC,113432.000,A,3650.517,N,03055.179,E,186.6,122.0,080822,000.0,W*7B
$GPGGA,113433.000,3650.485,N,03055.230,E,1,12,1.0,0.0,M,0.0,M,,*62
$GPGSA,A,3,01,02,03,04,05,06,07,08,09,10,11,12,1.0,1.0,1.0*30
$GPRMC,113433.000,A,3650.485,N,03055.230,E,186.6,122.0,080822,000.0,W*7E
$GPGGA,113434.000,3650.453,N,03055.281,E,1,12,1.0,0.0,M,0.0,M,,*64
$GPGSA,A,3,01,02,03,04,05,06,07,08,09,10,11,12,1.0,1.0,1.0*30
$GPRMC,113434.000,A,3650.453,N,03055.281,E,186.6,122.0,080822,000.0,W*78
$GPGGA,113435.000,3650.422,N,03055.332,E,1,12,1.0,0.0,M,0.0,M,,*6A
$GPGSA,A,3,01,02,03,04,05,06,07,08,09,10,11,12,1.0,1.0,1.0*30
$GPRMC,113435.000,A,3650.422,N,03055.332,E,186.6,128.8,080822,000.0,W*74
$GPGGA,113436.000,3650.385,N,03055.378,E,1,12,1.0,0.0,M,0.0,M,,*6D
$GPGSA,A,3,01,02,03,04,05,06,07,08,09,10,11,12,1.0,1.0,1.0*30
$GPRMC,113436.000,A,3650.385,N,03055.378,E,186.6,128.8,080822,000.0,W*73
$GPGGA,113437.000,3650.348,N,03055.424,E,1,12,1.0,0.0,M,0.0,M,,*63
$GPGSA,A,3,01,02,03,04,05,06,07,08,09,10,11,12,1.0,1.0,1.0*30
$GPRMC,113437.000,A,3650.348,N,03055.424,E,186.6,128.8,080822,000.0,W*7D
$GPGGA,113438.000,3650.312,N,03055.469,E,1,12,1.0,0.0,M,0.0,M,,*6A
$GPGSA,A,3,01,02,03,04,05,06,07,08,09,10,11,12,1.0,1.0,1.0*30
$GPRMC,113438.000,A,3650.312,N,03055.469,E,186.6,128.8,080822,000.0,W*74
$GPGGA,113439.000,3650.275,N,03055.515,E,1,12,1.0,0.0,M,0.0,M,,*61
$GPGSA,A,3,01,02,03,04,05,06,07,08,09,10,11,12,1.0,1.0,1.0*30
$GPRMC,113439.000,A,3650.275,N,03055.515,E,223.5,142.3,080822,000.0,W*77
$GPGGA,113440.000,3650.222,N,03055.556,E,1,12,1.0,0.0,M,0.0,M,,*6A
$GPGSA,A,3,01,02,03,04,05,06,07,08,09,10,11,12,1.0,1.0,1.0*30
$GPRMC,113440.000,A,3650.222,N,03055.556,E,223.5,142.3,080822,000.0,W*7C
$GPGGA,113441.000,3650.169,N,03055.597,E,1,12,1.0,0.0,M,0.0,M,,*6A
$GPGSA,A,3,01,02,03,04,05,06,07,08,09,10,11,12,1.0,1.0,1.0*30
$GPRMC,113441.000,A,3650.169,N,03055.597,E,223.5,142.3,080822,000.0,W*7C
$GPGGA,113442.000,3650.117,N,03055.638,E,1,12,1.0,0.0,M,0.0,M,,*66
$GPGSA,A,3,01,02,03,04,05,06,07,08,09,10,11,12,1.0,1.0,1.0*30
$GPRMC,113442.000,A,3650.117,N,03055.638,E,223.5,155.5,080822,000.0,W*70
$GPGGA,113443.000,3650.058,N,03055.664,E,1,12,1.0,0.0,M,0.0,M,,*64
$GPGSA,A,3,01,02,03,04,05,06,07,08,09,10,11,12,1.0,1.0,1.0*30
$GPRMC,113443.000,A,3650.058,N,03055.664,E,223.5,155.5,080822,000.0,W*72
$GPGGA,113444.000,3650.000,N,03055.691,E,1,12,1.0,0.0,M,0.0,M,,*64
$GPGSA,A,3,01,02,03,04,05,06,07,08,09,10,11,12,1.0,1.0,1.0*30
$GPRMC,113444.000,A,3650.000,N,03055.691,E,223.5,155.5,080822,000.0,W*72
$GPGGA,113445.000,3649.942,N,03055.717,E,1,12,1.0,0.0,M,0.0,M,,*6D
$GPGSA,A,3,01,02,03,04,05,06,07,08,09,10,11,12,1.0,1.0,1.0*30
$GPRMC,113445.000,A,3649.942,N,03055.717,E,223.5,169.6,080822,000.0,W*77
$GPGGA,113446.000,3649.880,N,03055.729,E,1,12,1.0,0.0,M,0.0,M,,*6C
$GPGSA,A,3,01,02,03,04,05,06,07,08,09,10,11,12,1.0,1.0,1.0*30
$GPRMC,113446.000,A,3649.880,N,03055.729,E,223.5,169.6,080822,000.0,W*76
$GPGGA,113447.000,3649.819,N,03055.740,E,1,12,1.0,0.0,M,0.0,M,,*62
$GPGSA,A,3,01,02,03,04,05,06,07,08,09,10,11,12,1.0,1.0,1.0*30
$GPRMC,113447.000,A,3649.819,N,03055.740,E,223.5,179.9,080822,000.0,W*76
$GPGGA,113448.000,3649.757,N,03055.740,E,1,12,1.0,0.0,M,0.0,M,,*68
$GPGSA,A,3,01,02,03,04,05,06,07,08,09,10,11,12,1.0,1.0,1.0*30
$GPRMC,113448.000,A,3649.757,N,03055.740,E,223.5,179.9,080822,000.0,W*7C
$GPGGA,113449.000,3649.695,N,03055.740,E,1,12,1.0,0.0,M,0.0,M,,*66
$GPGSA,A,3,01,02,03,04,05,06,07,08,09,10,11,12,1.0,1.0,1.0*30
$GPRMC,113449.000,A,3649.695,N,03055.740,E,223.5,191.7,080822,000.0,W*7A
$GPGGA,113450.000,3649.634,N,03055.727,E,1,12,1.0,0.0,M,0.0,M,,*64
$GPGSA,A,3,01,02,03,04,05,06,07,08,09,10,11,12,1.0,1.0,1.0*30
$GPRMC,113450.000,A,3649.634,N,03055.727,E,223.5,191.7,080822,000.0,W*78
$GPGGA,113451.000,3649.572,N,03055.715,E,1,12,1.0,0.0,M,0.0,M,,*65
$GPGSA,A,3,01,02,03,04,05,06,07,08,09,10,11,12,1.0,1.0,1.0*30
$GPRMC,113451.000,A,3649.572,N,03055.715,E,223.5,204.3,080822,000.0,W*72
$GPGGA,113452.000,3649.514,N,03055.688,E,1,12,1.0,0.0,M,0.0,M,,*63
$GPGSA,A,3,01,02,03,04,05,06,07,08,09,10,11,12,1.0,1.0,1.0*30
$GPRMC,113452.000,A,3649.514,N,03055.688,E,223.5,204.3,080822,000.0,W*74
$GPGGA,113453.000,3649.456,N,03055.662,E,1,12,1.0,0.0,M,0.0,M,,*61
$GPGSA,A,3,01,02,03,04,05,06,07,08,09,10,11,12,1.0,1.0,1.0*30
$GPRMC,113453.000,A,3649.456,N,03055.662,E,223.5,204.3,080822,000.0,W*76
